City_Name,Temp,Latitude,Longitude,Humidity,Wind_Speed,Cloudiness
sisimiut,36.19,66.9395,-53.6735,82,7.9,61
sur,92.62,22.5667,59.5289,32,14.54,36
mandera,76.62,3.9366,41.867,67,15.93,72
hasaki,68.58,35.7333,140.8333,71,6.35,80
pangody,41.97,65.85,74.4859,53,8.1,10
new milford,64.83,40.9327,-74.0179,40,5.75,1
makakilo city,83.86,21.3469,-158.0858,65,9.22,1
zverinogolovskoye,46.72,54.4586,64.8542,74,11.39,84
dingle,81.95,10.9995,122.6711,78,0.25,100
magalia,95.88,39.8121,-121.5783,19,1.01,27
hilo,80.17,19.7297,-155.09,81,13.8,40
whitecourt,74.44,54.1502,-115.6855,35,9.22,75
kirtipur,68.0,27.6667,85.2833,94,3.44,75
la ronge,64.65,55.1001,-105.2842,48,6.91,90
nanortalik,37.67,60.1432,-45.2371,92,11.88,29
hobyo,78.22,5.3505,48.5268,86,23.64,68
marmora,44.91,44.4583,7.094,92,2.62,35
atar,89.82,20.5169,-13.0499,33,5.23,87
aklavik,35.6,68.2191,-135.0107,75,9.22,90
ribeira grande,61.09,38.5167,-28.7,73,17.02,53
nakamura,74.5,32.9833,132.9333,62,2.64,100
leon,66.25,21.1167,-101.6667,45,11.48,100
baisha,78.3,26.5222,110.9311,84,1.3,25
dikson,28.83,73.5069,80.5464,93,14.36,100
vrangel,52.93,42.7297,133.0839,87,9.98,86
iqaluit,31.73,63.7506,-68.5145,93,17.27,90
pevek,39.52,69.7008,170.3133,71,5.64,4
umm kaddadah,88.32,13.6017,26.6876,23,6.67,52
san andres,84.22,12.5847,-81.7006,74,10.36,20
yashalta,61.25,46.3395,42.2762,85,8.5,49
paoua,73.29,7.2427,16.4406,77,7.34,100
lompoc,66.36,34.6391,-120.4579,82,4.92,90
havoysund,43.68,70.9963,24.6622,98,19.01,100
khatanga,34.68,71.9667,102.5,79,10.87,86
airai,65.89,-8.9266,125.4092,74,2.1,87
butaritari,83.82,3.0707,172.7902,77,18.05,77
marawi,75.0,7.9986,124.2928,96,3.94,100
tuktoyaktuk,30.2,69.4541,-133.0374,86,8.05,75
oktyabrskiy,43.63,54.4815,53.471,96,5.35,96
ponta do sol,56.98,32.6667,-17.1,70,1.99,64
raudeberg,46.89,61.9875,5.1352,94,4.43,72
perelyub,56.73,51.8667,50.3667,91,9.89,76
barrow,33.82,71.2906,-156.7887,75,14.97,90
upernavik,30.7,72.7868,-56.1549,91,2.3,100
kapaa,80.29,22.0752,-159.319,73,4.0,75
vila franca do campo,60.8,37.7167,-25.4333,72,18.41,75
fort-shevchenko,68.41,44.5086,50.263,77,5.86,0
kuandian,56.12,40.7286,124.7847,98,3.13,100
saint-francois,55.96,46.4154,3.9054,82,1.14,0
kodiak,47.71,57.79,-152.4072,87,16.11,90
klaksvik,46.4,62.2266,-6.589,100,20.71,75
bousse,85.57,12.6606,-1.8922,37,11.23,100
tasiilaq,39.36,65.6145,-37.6368,83,1.39,70
tenenkou,95.7,14.4572,-4.9169,22,7.76,100
sretensk,48.74,52.2453,117.7093,98,3.96,100
qaanaaq,32.7,77.484,-69.3632,93,4.14,100
saskylakh,37.72,71.9167,114.0833,95,15.52,100
sidi ali,70.32,36.0998,0.4206,66,9.08,100
eldorado,61.5,-23.7869,-54.2836,94,2.71,22
trairi,78.84,-3.2778,-39.2689,83,9.01,8
kailua,84.16,21.4022,-157.7394,61,9.22,20
big spring,61.63,32.2504,-101.4787,92,4.0,1
koygorodok,36.55,60.445,50.9968,62,0.94,29
porto novo,82.22,6.4965,2.6036,75,10.6,100
kavieng,83.01,-2.5744,150.7967,73,7.58,88
yellowknife,61.88,62.456,-114.3525,42,17.27,40
tiksi,47.48,71.6872,128.8694,66,3.91,6
port blair,82.27,11.6667,92.75,79,2.93,25
zhezkazgan,68.88,47.8043,67.7144,59,6.93,84
andippatti,80.19,9.9833,77.6333,72,5.37,100
churapcha,60.21,62.0025,132.4325,51,4.36,71
zdvinsk,64.38,54.7021,78.661,65,13.09,97
fortuna,65.55,40.5982,-124.1573,64,4.0,32
cerea,58.89,45.1921,11.2103,75,3.87,0
stuttgart,48.33,48.7823,9.177,66,1.14,0
bolgatanga,82.33,10.7856,-0.8514,65,14.29,78
severo-kurilsk,37.42,50.6789,156.125,98,20.54,100
lavrentiya,35.94,65.5833,-171.0,71,11.01,66
koshurnikovo,43.83,54.1667,93.3,61,3.49,0
cabo san lucas,83.66,22.8909,-109.9124,32,5.75,1
torbay,47.48,47.6666,-52.7314,71,12.66,90
bilma,91.2,18.6853,12.9164,9,8.16,100
baghdad,76.91,33.3406,44.4009,29,7.78,0
polunochnoye,35.69,60.8697,60.4153,66,3.33,1
dawei,80.01,14.0833,98.2,88,2.71,72
ucluelet,68.18,48.9329,-125.5528,75,1.01,96
okhotsk,35.96,59.3833,143.3,97,7.83,100
madera,99.34,37.1666,-119.8343,17,1.99,6
tukrah,68.07,32.5341,20.5791,82,4.54,34
berlevag,40.71,70.8578,29.0864,93,7.67,100
paamiut,37.4,61.994,-49.6678,90,5.55,69
kita,89.8,13.0349,-9.4895,40,7.38,90
ziyang,74.37,29.2497,117.8547,81,3.47,88
baruun-urt,43.99,46.6806,113.2792,43,10.49,42
yeniseysk,50.76,58.4497,92.1703,62,8.03,84
bethel,57.63,41.3712,-73.414,67,4.61,1
nikolskoye,49.89,59.7035,30.7861,96,4.59,96
komsomolskiy,70.52,40.4272,71.7189,37,6.91,4
turbat,87.96,26.0023,63.044,33,1.72,0
narsaq,46.62,60.9167,-46.05,82,1.86,30
cayenne,77.09,4.9333,-52.3333,89,10.49,75
port hardy,62.71,50.6996,-127.4199,72,4.61,75
pozoblanco,61.38,38.3791,-4.8483,85,5.82,12
qaqortoq,46.9,60.7167,-46.0333,88,3.87,37
puerto del rosario,65.95,28.5004,-13.8627,72,14.97,9
leningradskiy,33.28,69.3833,178.4167,85,13.33,83
nantucket,55.72,41.2835,-70.0995,88,14.97,90
talnakh,32.79,69.4865,88.3972,88,5.01,96
lorengau,81.95,-2.0226,147.2712,84,12.12,98
nevers,51.71,46.9167,3.3333,84,3.67,1
egvekinot,39.67,66.3167,-179.1667,55,4.54,100
saint george,96.37,37.1041,-113.5841,9,1.01,1
ha giang,82.76,22.8333,104.9833,84,0.67,78
lang son,83.55,21.8333,106.7333,78,3.42,100
lanxi,70.97,29.2195,119.477,78,3.11,93
haimen,78.8,23.1935,116.6142,89,8.95,75
kuytun,39.56,54.3419,101.5036,83,10.29,90
catuday,82.94,16.2923,119.8062,77,5.61,100
nadym,42.3,65.5333,72.5167,55,11.88,6
sao filipe,73.83,14.8961,-24.4956,77,7.47,47
clyde river,25.03,70.4692,-68.5914,100,4.61,90
kavaratti,83.59,10.5669,72.642,74,17.74,98
kalmunai,79.74,7.4167,81.8167,79,2.55,100
bay roberts,50.74,47.5999,-53.2648,73,3.0,95
yanam,83.12,16.7333,82.2167,86,4.68,65
ballina,64.29,-28.8667,153.5667,73,9.22,75
kudahuvadhoo,82.94,2.6708,72.8944,71,15.84,63
darhan,42.03,49.4867,105.9228,49,3.76,18
erzurum,46.08,40.0,41.5,57,4.63,43
yugorsk,39.15,61.3133,63.3319,61,5.01,2
puerto ayora,74.55,-0.7393,-90.3518,88,10.0,36
marienburg,46.71,54.0359,19.0266,82,5.19,99
bontang,78.8,0.1333,117.5,87,5.97,100
jijiang,77.59,29.2906,106.2542,71,2.06,85
ulaangom,50.67,49.9811,92.0667,47,6.76,0
longyearbyen,35.44,78.2186,15.6401,75,4.61,75
kieta,82.98,-6.2167,155.6333,81,7.16,100
vardo,40.23,70.3705,31.1107,86,9.53,100
kochevo,36.88,59.5994,54.3125,68,0.94,63
chokurdakh,67.41,70.6333,147.9167,28,10.8,32
acajutla,89.6,13.5928,-89.8275,55,2.3,20
truro,54.5,50.2653,-5.0544,83,8.12,99
norman wells,66.24,65.282,-126.8329,45,9.22,75
kahului,86.11,20.8947,-156.47,72,13.8,40
lozova,49.71,48.8894,36.3176,93,14.58,100
kolondieba,80.02,11.0882,-6.8926,68,8.93,87
tashtyp,48.83,52.7939,89.8983,73,3.42,0
chojnice,52.21,53.6955,17.557,67,3.58,100
acapulco,87.62,16.8634,-99.8901,74,7.29,40
poltsamaa,49.3,58.6525,25.9706,85,5.77,100
pawai,90.27,24.2667,80.1667,32,8.41,66
tezu,73.53,27.9167,96.1667,97,2.35,100
mayo,64.87,38.8876,-76.5119,63,5.75,1
zeya,64.15,53.75,127.2667,50,7.31,100
podor,78.8,16.6527,-14.9587,50,4.61,0
college,67.69,64.8569,-147.8028,36,0.0,75
deputatskiy,60.13,69.3,139.9,33,7.29,33
ayan,43.18,56.45,138.1667,85,5.66,99
kande,73.4,9.9578,1.0447,100,2.3,20
oceanside,68.59,33.1959,-117.3795,74,1.99,90
thinadhoo,83.62,0.5333,72.9333,71,17.54,84
nemuro,54.03,43.3236,145.575,77,9.93,19
itoman,80.62,26.1247,127.6694,69,18.41,75
vostok,59.27,46.4856,135.8833,52,2.95,54
kautokeino,43.47,69.0125,23.0412,80,3.4,90
arlit,89.71,18.7369,7.3853,9,6.87,92
dudinka,30.27,69.4058,86.1778,87,6.62,88
lesce,47.41,46.3611,14.1578,93,1.92,56
anamur,66.22,36.0751,32.8369,69,12.39,0
belyy yar,49.89,53.6039,91.3903,71,3.89,0
mogadishu,78.3,2.0371,45.3438,84,16.28,81
sept-iles,44.13,50.2001,-66.3821,92,1.01,90
cravo norte,78.73,6.3017,-70.2041,83,1.48,67
north bend,66.4,43.4065,-124.2243,62,26.46,1
nuuk,34.41,64.1835,-51.7216,93,3.44,90
bubaque,78.37,11.2833,-15.8333,80,9.53,100
naron,61.05,43.5167,-8.1528,91,4.92,25
igarka,34.97,67.4667,86.5833,77,4.83,100
grindavik,44.94,63.8424,-22.4338,81,22.82,40
bondo,71.89,3.8146,23.6866,89,3.71,95
duldurga,44.02,50.6761,113.5931,49,16.98,84
acarau,79.05,-2.8856,-40.12,84,13.78,50
agirish,37.72,61.9247,63.0231,62,6.35,5
sitka,53.49,57.0531,-135.33,87,13.8,90
luxor,90.66,25.6989,32.6421,15,5.06,3
kirs,37.85,59.3388,52.2447,68,0.67,99
price,79.88,39.5994,-110.8107,11,8.05,1
saint-augustin,43.7,51.226,-58.6502,97,7.92,100
thompson,57.36,55.7435,-97.8558,67,12.66,40
brownwood,65.01,31.7093,-98.9912,68,13.51,93
san patricio,82.83,28.017,-97.5169,74,10.36,75
monrovia,77.54,6.3005,-10.7969,86,4.81,100
fukue,75.56,32.6881,128.8419,53,6.91,0
flin flon,54.1,54.7682,-101.865,93,6.49,100
dire dawa,69.49,9.5931,41.8661,72,14.34,7
bandarbeyla,79.38,9.4942,50.8122,82,23.38,100
weyburn,77.0,49.6668,-103.8511,16,11.5,100
atuona,79.02,-9.8,-139.0333,73,10.96,84
aksay,64.56,47.26,39.87,67,8.99,98
liverpool,60.93,53.4106,-2.9779,82,9.22,43
orlik,32.49,52.5178,99.825,70,2.84,17
ponta delgada,61.52,37.7333,-25.6667,72,18.41,75
wilmington,68.56,34.2257,-77.9447,70,8.05,1
shahrud,72.63,36.4182,54.9763,42,6.85,1
kloulklubed,86.5,7.0419,134.2556,77,15.39,100
sobolevo,39.52,54.4299,31.8996,75,1.66,7
bagn,56.08,60.8225,9.5521,76,1.9,100
ugoofaaru,83.23,5.6667,73.0,68,18.99,69
yerbogachen,60.82,61.2767,108.0108,49,4.99,41
gat,68.11,31.61,34.7642,100,2.48,0
lagoa,60.04,39.05,-27.9833,71,16.46,79
alakurtti,41.63,66.9672,30.3491,71,3.8,100
inndyr,44.71,67.0338,14.0276,90,4.05,99
fort nelson,78.39,58.8053,-122.7002,24,4.61,75
porto torres,59.18,40.835,8.3972,63,5.26,84
cherskiy,63.95,68.75,161.3,22,10.42,99
bud,68.4,39.447,-86.1758,58,2.98,77
lakselv,46.4,70.0513,24.9718,81,11.5,90
mikkeli,44.71,61.6886,27.2723,93,1.14,0
kralendijk,82.38,12.15,-68.2667,74,18.41,20
pitea,51.89,65.3172,21.4794,67,0.94,99
tura,72.3,25.5198,90.2201,96,3.69,100
plyussa,42.76,58.4308,29.3654,92,3.18,96
saint anthony,73.69,45.0205,-93.218,28,1.01,1
vestmannaeyjar,45.46,63.4427,-20.2734,84,17.81,99
evensk,50.02,61.95,159.2333,56,2.51,37
baykit,56.1,61.67,96.37,58,5.14,59
etchoropo,95.41,26.7667,-109.6667,44,10.8,0
balkanabat,76.8,39.5108,54.3671,49,3.4,0
pyapon,81.28,16.2833,95.6833,81,3.22,84
ocos,84.56,14.5094,-92.1933,69,5.82,54
borogontsy,62.64,62.6683,131.1683,43,2.86,24
vendome,55.08,47.8,1.0667,95,8.68,0
yarega,39.34,63.4354,53.5765,67,8.63,23
clarksville,73.53,36.5298,-87.3595,50,3.67,1
rudnichnyy,38.05,59.617,52.4703,65,0.56,95
moose factory,58.12,51.2585,-80.6094,77,11.5,90
harnosand,44.6,62.6323,17.9379,69,6.85,100
lasa,53.15,46.6166,10.7002,76,3.74,4
oranjestad,81.91,12.524,-70.027,81,5.99,20
wattegama,78.8,6.7989,81.4808,94,6.91,0
olafsvik,44.82,64.8945,-23.7142,80,18.59,65
kosh-agach,51.73,50.0,88.6667,37,2.42,8
abu dhabi,86.02,24.4667,54.3667,79,10.87,0
mut,66.07,36.6439,33.4389,53,1.88,0
teya,56.26,60.3778,92.6267,53,9.55,52
centralia,80.87,46.7162,-122.9543,36,4.61,1
bathsheba,81.21,13.2167,-59.5167,61,16.67,20
illela,87.87,13.7292,5.2975,14,5.48,1
faranah,73.02,10.0404,-10.7434,93,6.22,88
west odessa,63.81,31.8424,-102.4988,82,20.71,20
kropotkin,61.0,45.4375,40.5756,85,8.61,85
jumla,54.37,29.2747,82.1838,88,2.48,24
santa maria,46.4,-29.6842,-53.8069,100,1.14,0
hirara,80.87,24.8,125.2833,89,8.05,75
vidim,52.39,56.4088,103.1106,60,9.48,59
zhangye,67.5,38.9342,100.4517,17,1.28,0
minsk,35.35,53.9,27.5667,72,2.04,93
thanh hoa,87.73,19.8,105.7667,65,3.91,99
west plains,65.77,36.7281,-91.8524,68,4.61,1
taoudenni,99.64,22.6783,-3.9836,11,7.23,59
murdochville,44.6,48.9583,-65.5006,93,5.75,100
shu,66.58,43.5983,73.7614,44,9.26,0
sturgis,64.76,41.7992,-85.4192,55,5.75,90
leshukonskoye,43.3,64.8989,45.7622,75,6.04,65
kologriv,40.82,58.8275,44.3178,67,1.43,98
victoria,80.33,22.2855,114.1577,96,1.01,100
praia da vitoria,59.25,38.7333,-27.0667,72,14.97,20
san vicente,49.5,-26.6167,-54.1333,59,2.84,0
robertsport,77.68,6.7533,-11.3686,84,4.25,100
lac du bonnet,75.58,50.2536,-96.0612,39,4.74,41
san jose,83.97,37.3394,-121.895,33,1.99,40
strezhevoy,42.78,60.7333,77.5889,89,13.58,100
sabya,87.8,17.1495,42.6254,70,3.13,0
kyzyl-suu,54.27,42.3414,78.0056,60,6.8,20
kuching,80.82,1.55,110.3333,89,3.44,20
buenos aires,62.6,-34.6132,-58.3772,48,8.05,95
aljezur,61.81,37.3191,-8.8033,77,6.42,64
nome,50.09,64.5011,-165.4064,61,9.22,1
ostrovnoy,35.89,68.0531,39.5131,92,13.89,100
naze,76.12,28.3667,129.4833,70,20.2,60
bulgan,36.52,48.8125,103.5347,73,4.03,55
karakol,53.15,42.4907,78.3936,57,4.47,5
nandu,81.48,22.8525,110.8233,87,1.52,100
milford,59.97,41.2223,-73.0565,55,3.44,1
tessaoua,85.42,13.7574,7.9874,10,7.31,2
vanimo,79.95,-2.6741,141.3028,86,7.67,100
bhatgaon,89.4,21.15,81.7,41,7.16,76
korla,77.34,41.7597,86.1469,20,3.91,81
abu kamal,85.69,34.4506,40.9171,20,8.72,7
hami,71.82,42.8,93.45,13,11.43,42
nizhniy kuranakh,63.34,58.8353,125.4869,58,5.35,15
kamaishi,61.75,39.2667,141.8833,78,4.41,99
alcaniz,59.65,41.05,-0.1333,67,8.88,94
badami,76.66,15.915,75.6768,77,7.14,62
kyra,42.93,49.5776,111.9753,47,18.03,18
hansi,84.58,29.1,75.9667,46,7.23,92
nouadhibou,66.18,20.931,-17.0347,88,17.27,0
korsakovo,37.65,53.2677,37.3569,92,6.67,34
fairbanks,67.62,64.8378,-147.7164,37,0.0,90
yumen,59.5,40.2833,97.2,18,7.54,9
faya,70.32,18.3851,42.4509,17,5.59,3
havre-saint-pierre,44.96,50.2334,-63.5986,93,3.44,90
eden,68.68,36.4885,-79.7667,68,0.0,1
husavik,46.31,66.0449,-17.3389,63,5.64,23
luba,75.09,3.4568,8.5547,88,6.4,100
mae sai,76.32,20.4335,99.8762,88,0.94,94
salalah,82.49,17.0151,54.0924,89,5.75,40
hofn,45.52,64.2539,-15.2082,85,2.89,74
barahona,79.25,18.2085,-71.1008,71,6.22,92
qom,83.93,34.6401,50.8764,15,6.62,31
bembereke,78.73,10.2283,2.6634,68,12.88,91
mehamn,41.34,71.0357,27.8492,97,10.4,100
bechem,73.15,7.0903,-2.025,97,3.42,71
timra,44.28,62.487,17.3257,81,6.91,100
bridlington,47.14,54.0831,-0.1919,87,8.84,2
brownsville,83.79,25.9018,-97.4975,73,4.0,40
banda aceh,80.19,5.5577,95.3222,76,10.29,99
gua musang,75.6,4.8823,101.9644,96,1.14,55
hovd,51.35,48.0056,91.6419,34,2.01,3
zhigansk,57.09,66.7697,123.3711,50,4.65,76
sakakah,81.97,29.9697,40.2064,13,3.15,6
hay river,75.18,60.8156,-115.7999,29,10.36,75
shimoda,70.11,34.6667,138.95,70,13.38,30
roald,48.4,62.5833,6.1333,93,3.44,99
pershotravneve,42.28,51.3929,28.8684,95,4.07,28
springdale,61.65,36.1867,-94.1288,83,5.75,75
ilulissat,32.02,69.2167,-51.1,80,4.61,95
konstantinovka,61.84,49.6167,127.9833,63,11.81,76
datong,61.18,40.0936,113.2914,32,6.22,0
celestun,82.89,20.8667,-90.4,73,20.09,41
tibati,67.46,6.4667,12.6333,96,5.82,100
dharapuram,75.04,10.7333,77.5167,75,14.65,100
arteaga,76.46,18.4667,-102.4167,57,8.79,99
adre,85.68,13.4667,22.2,25,6.22,73
aleksandrovsk-sakhalinskiy,51.06,50.8975,142.1561,61,8.46,43
jalu,76.53,29.0331,21.5482,36,15.1,0
mahon,64.96,39.8885,4.2658,94,5.75,0
zyryanka,60.49,65.75,150.85,31,16.04,37
marabba,94.15,12.35,32.1833,28,11.54,29
westport,59.54,41.1415,-73.3579,76,1.99,1
beringovskiy,36.18,63.05,179.3167,79,12.01,32
shakhtinsk,63.16,49.71,72.5872,59,7.23,68
yishui,74.73,35.7847,118.6281,66,4.56,100
gorontalo,81.19,0.5412,123.0595,83,4.74,99
san quintin,65.3,30.4833,-115.95,66,9.89,3
oriximina,79.18,-1.7656,-55.8661,77,4.38,30
yar-sale,41.07,66.8333,70.8333,75,13.87,20
ishigaki,82.53,24.3448,124.1572,83,6.91,75
ukiah,98.37,39.1502,-123.2078,15,11.5,1
cap-aux-meules,57.22,47.3821,-61.8597,94,19.57,90
pandan,84.61,14.0453,124.1694,79,6.33,93
srednekolymsk,65.84,67.45,153.6833,27,13.65,8
codrington,52.65,-38.2667,141.9667,45,12.71,100
yinchuan,70.41,38.4681,106.2731,19,10.8,11
touros,77.9,-5.1989,-35.4608,85,11.18,5
balykshi,68.0,47.0667,51.8667,83,6.71,40
marystown,48.85,47.1666,-55.1483,100,8.59,100
sergeyevka,50.86,53.88,67.4158,81,13.2,97
coos bay,67.12,43.3665,-124.2179,62,26.46,1
ohara,69.35,35.25,140.3833,75,8.46,80
half moon bay,74.32,37.4636,-122.4286,55,1.01,1
wake forest,66.29,35.9799,-78.5097,68,4.36,1
hearst,57.2,49.6835,-83.6665,88,3.74,99
matagami,66.31,49.7502,-77.6328,34,6.2,75
berbera,89.94,10.4396,45.0143,52,5.48,13
ardesen,71.56,41.1911,40.9875,75,9.33,56
priiskovyy,44.6,51.9333,116.6333,95,6.15,100
challans,63.52,46.8436,-1.8749,77,10.0,51
dalhousie,57.34,32.5333,75.9833,58,5.46,100
loum,72.45,4.7182,9.7351,97,2.51,100
nador,66.45,35.174,-2.9287,94,12.15,75
ixtapa,85.23,20.7,-105.2,54,9.22,75
katsuura,67.69,35.1333,140.3,76,8.75,84
saint-pierre,69.91,-21.3393,55.4781,66,6.91,75
akalkot,80.17,17.5333,76.2167,70,5.77,37
gboko,76.73,7.3179,8.9951,85,9.55,94
itum-kale,61.9,42.7356,45.5758,73,6.78,93
dezful,87.17,32.3811,48.4058,11,4.65,0
morristown,70.54,36.214,-83.2949,51,0.0,1
jiaocheng,76.32,24.6774,116.1389,96,2.06,100
provideniya,48.31,64.3833,-173.3,57,11.18,0
carutapera,76.15,-1.195,-46.02,91,5.06,22
outlook,77.56,51.5001,-107.0513,31,6.4,98
gadarwara,86.72,22.9167,78.7833,44,8.41,72
lieksa,41.77,63.3167,30.0167,95,1.68,28
balti,51.15,47.7617,27.9289,93,11.52,100
pervomayskoye,66.34,43.919,46.7102,66,6.8,53
camacha,60.21,33.0833,-16.3333,82,5.75,40
jeremie,79.88,18.65,-74.1167,79,2.84,99
barsovo,39.33,61.1667,73.1667,86,6.35,69
namatanai,82.38,-3.6667,152.4333,78,2.91,91
champoton,86.02,19.35,-90.7167,72,15.59,51
marsaxlokk,66.81,35.8419,14.5431,88,5.75,20
pochutla,82.81,15.7432,-96.4661,69,5.68,78
kolpashevo,62.62,58.3131,82.9089,80,12.17,66
guerrero negro,67.87,27.9769,-114.0611,57,15.19,0
kaduqli,88.61,11.0167,29.7167,32,2.57,19
charlestown,56.86,-32.95,151.6667,80,3.0,100
hamilton,69.22,39.1834,-84.5333,56,2.64,1
tay ninh,83.98,11.3,106.1,78,6.42,76
peniche,60.75,39.3558,-9.3811,92,4.07,98
basco,84.0,20.4487,121.9702,74,4.41,97
sal rei,72.16,16.1833,-22.9167,88,11.95,58
high level,77.11,58.5169,-117.136,31,7.0,75
xiongzhou,76.93,25.1167,114.3,95,2.28,99
stavern,52.7,59.0,10.0333,97,8.5,100
anadyr,48.7,64.75,177.4833,46,2.95,0
san cristobal,73.58,7.7669,-72.225,85,1.45,63
aykhal,55.65,66.0,111.5,49,15.37,100
sundsvall,44.56,62.3913,17.3063,81,3.22,100
nyaunglebin,79.0,17.95,96.7333,86,4.0,99
sangar,55.11,63.9242,127.4739,55,4.54,63
lincoln,72.46,40.8,-96.667,47,1.01,20
leesburg,65.39,39.1157,-77.5636,62,1.01,1
usinsk,42.89,65.9939,57.5281,75,21.03,99
abalak,39.85,58.1286,68.5944,83,9.01,22
batticaloa,79.36,7.7102,81.6924,76,5.93,100
giera,52.0,45.4072,20.9922,92,6.96,84
los llanos de aridane,61.83,28.6585,-17.9182,68,8.05,0
coaticook,50.58,45.1334,-71.7991,98,2.24,100
yelovo,45.21,57.0538,54.9207,72,6.8,98
exeter,54.27,50.7236,-3.5275,80,3.27,81
goderich,66.43,43.7501,-81.7165,30,3.44,89
zaysan,66.52,47.4667,84.8667,39,5.95,18
ryotsu,62.56,38.0833,138.4333,76,8.75,27
goure,87.03,13.9835,10.2704,13,3.87,45
shingu,69.91,33.7333,135.9833,61,4.85,97
uzyn,44.62,49.8262,30.4149,93,7.29,40
teguldet,53.85,57.3064,88.1667,58,8.88,25
tatvan,57.54,38.5067,42.2817,41,5.97,9
bording,44.01,56.1465,9.2753,97,6.6,90
norden,49.82,53.6,7.2,79,1.01,1
kodinsk,54.05,58.6881,99.1844,53,2.93,1
karpathos,67.1,35.507,27.2132,82,10.71,12
dakar,73.4,14.6937,-17.4441,88,6.91,75
kushmurun,54.54,52.4503,64.6311,75,18.16,94
yuanlin,78.85,30.4151,112.8859,73,4.21,32
oistins,80.69,13.0667,-59.5333,61,18.41,20
marshfield,63.43,44.6689,-90.1718,72,18.41,90
rapid valley,72.84,44.0625,-103.1463,33,1.01,1
dustlik,79.39,40.5247,68.0358,24,7.54,71
pemangkat,79.9,1.1667,108.9667,84,4.45,91
palasa,84.02,18.7667,84.4167,87,6.8,86
petatlan,84.0,17.5167,-101.2667,68,5.48,99
verkhnevilyuysk,65.88,63.4453,120.3167,41,7.49,35
shieli,79.77,44.1667,66.75,30,5.75,57
upata,72.19,8.0086,-62.3989,92,6.8,81
ust-tsilma,44.62,65.441,52.1498,80,7.52,73
leh,43.48,34.1667,77.5833,95,4.9,100
sinnamary,77.72,5.3833,-52.95,90,12.26,100
karlskrona,59.45,56.1616,15.5866,93,11.7,100
rimbey,72.48,52.6334,-114.2353,50,5.66,47
progreso,84.11,21.2833,-89.6667,80,18.25,9
bardiyah,68.88,31.7561,25.0865,75,9.71,25
kaita,74.39,34.3667,132.55,58,1.63,100
leninskoye,73.33,41.7589,69.3864,32,6.49,77
ljubinje,54.75,42.9508,18.0886,79,6.15,1
haines junction,55.35,60.7522,-137.5108,62,4.61,100
ketchikan,55.38,55.3422,-131.6461,98,9.86,100
nanga eboko,69.37,4.6833,12.3667,99,2.44,100
kemin,61.97,42.7846,75.6892,56,7.25,2
santa fe,59.7,-31.6333,-60.7,52,3.0,60
kushuhum,54.28,47.7144,35.2092,94,18.84,75
tres palos,79.41,18.1833,-101.6167,63,7.83,81
muhororo,64.18,0.9381,30.7594,89,3.71,94
kyren,39.34,51.6828,102.1408,63,2.3,60
severo-yeniseyskiy,53.62,60.3725,93.0408,53,9.17,82
nieuw amsterdam,77.02,5.8833,-55.0833,90,9.28,75
agadir,63.05,30.4202,-9.5982,85,4.27,1
coalinga,100.33,36.1397,-120.3602,36,4.52,3
idenao,74.64,4.2475,9.0047,97,1.95,100
swiecie,45.37,53.4095,18.4474,76,1.43,100
matara,79.48,5.9485,80.5353,82,13.78,100
khartoum,93.02,15.5518,32.5324,23,8.5,24
wetaskiwin,74.26,52.9668,-113.3687,48,6.91,65
san jeronimito,84.04,17.55,-101.3333,70,6.4,75
pacific grove,61.27,36.6177,-121.9166,79,4.0,1
payo,72.79,-3.7508,103.6372,92,1.34,95
ginda,60.76,30.6945,78.4932,74,4.92,96
mnogovershinnyy,57.92,53.9353,139.9242,56,4.99,36
lohardaga,76.86,23.4333,84.6833,60,6.44,77
ust-uda,37.02,54.1742,103.0304,97,7.29,98
payakumbuh,69.84,-0.2202,100.6308,92,3.33,99
pedernales,81.1,18.0384,-71.744,68,4.94,95
ternate,83.41,0.8,127.4,75,9.66,97
khani,56.77,41.9563,42.9566,92,5.82,20
kitimat,57.9,54.0524,-128.6534,96,3.96,100
nedjo,60.87,9.5046,35.5019,72,1.63,29
luorong,78.06,24.4058,109.6086,93,2.77,100
freeport,61.03,40.6576,-73.5832,77,4.0,1
gol,56.62,60.7014,8.9457,75,2.66,100
vestmanna,45.52,62.1564,-7.1664,100,11.61,75
asyut,87.15,27.181,31.1837,26,9.95,0
rosarito,66.4,32.3333,-117.0333,72,6.08,20
muroto,69.84,33.2833,134.15,73,6.76,100
xichang,69.22,27.8964,102.2634,84,1.34,94
shrewsbury,58.24,52.7101,-2.7521,83,6.08,75
vanavara,56.84,60.34,102.2797,49,4.54,11
bilibino,61.39,68.0546,166.4372,30,2.51,21
dukat,40.91,62.55,155.55,54,8.52,59
golcuv jenikov,43.34,49.8163,15.4769,84,0.56,0
huilong,75.97,31.8111,121.655,85,19.1,23
kidal,91.51,18.4411,1.4078,7,9.1,0
terrasini,64.81,38.146,13.0844,73,8.05,0
jauharabad,80.08,32.2898,72.2813,50,8.72,2
belen,64.54,36.4891,36.2233,73,3.13,0
klamath falls,85.62,42.2249,-121.7817,18,5.01,1
zhanaozen,69.49,43.3,52.8,52,7.83,0
agadez,86.22,19.75,10.25,10,2.08,99
kamenka,50.85,51.3223,42.7678,82,9.75,100
marzuq,76.93,14.4,46.4667,41,5.28,19
zhigalovo,38.86,54.8097,105.1578,98,3.85,100
blankenberge,59.27,51.3131,3.1323,62,3.0,0
laukaa,42.55,58.7372,29.8453,94,4.83,89
gasa,68.52,31.5,34.4667,74,3.69,0
muros,60.85,42.7762,-9.0603,88,4.27,46
visnes,48.29,59.3556,5.2242,100,5.75,79
irbeyskoye,45.28,55.6428,95.4522,63,6.87,0
vermillion,77.18,42.7794,-96.9292,46,6.38,8
prince rupert,57.15,54.3161,-130.3201,91,20.71,90
chodavaram,80.44,17.8333,82.95,68,0.92,81
mata,60.93,40.683,-7.4592,97,2.06,19
mykolayivka,51.73,47.5414,30.7561,89,13.98,100
puerto escondido,84.94,15.85,-97.0667,73,5.93,60
parrita,83.25,9.5201,-84.3225,86,2.28,80
feldbach,50.81,46.9531,15.8883,83,3.38,80
safaga,85.55,26.7292,33.9365,48,16.02,29
kutum,82.18,14.2,24.6667,26,2.73,87
shenjiamen,71.82,29.9576,122.298,82,14.7,77
ust-nera,54.28,64.5667,143.2,70,4.05,95
hibbing,69.06,47.4272,-92.9377,40,6.91,1
mirnyy,61.79,62.5353,113.9611,41,7.61,37
miles city,81.57,46.4083,-105.8406,21,3.44,1
milkovo,49.05,54.7167,158.6167,63,4.85,100
kawardha,88.83,22.0167,81.25,37,2.46,74
mabaruma,74.21,8.2,-59.7833,95,4.97,100
chebenki,62.35,51.9337,55.7077,78,10.31,69
maple creek,76.73,49.9168,-109.4848,25,11.5,49
anloga,80.82,5.7947,0.8973,80,13.78,100
masty,47.98,53.4122,24.5387,73,3.38,99
khuzdar,78.39,27.7384,66.6434,25,5.44,0
pangnirtung,30.69,66.1451,-65.7125,93,1.61,81
wangqing,54.86,43.3218,129.7634,90,5.41,100
hornepayne,52.48,49.2138,-84.7705,90,7.07,78
sorland,47.84,67.667,12.6934,83,2.24,100
tabuk,81.99,17.4189,121.4443,76,4.94,97
almaznyy,60.8,48.0448,40.045,77,15.66,0
uray,39.78,60.1247,64.7758,69,5.17,4
alghero,59.0,40.5589,8.3181,94,2.3,0
gunjur,73.47,13.2019,-16.7339,94,8.25,40
khvorostyanka,50.41,52.6096,48.9597,90,11.72,72
meulaboh,76.41,4.1363,96.1285,88,3.94,97
saravena,75.18,6.9538,-71.8752,82,2.71,40
manokwari,78.84,-0.8667,134.0833,82,16.08,99
muyezerskiy,43.0,63.9333,31.65,94,3.87,42
levelek,53.42,47.9628,21.9854,89,9.19,77
kapit,75.96,2.0167,112.9333,94,0.72,81
constitucion,57.97,-35.3333,-72.4167,89,4.61,88
nizwa,85.42,22.9333,57.5333,25,3.96,91
wynyard,54.95,-41.0,145.7167,76,3.62,100
buchanan,75.76,5.8808,-10.0467,91,3.98,100
jijiga,62.6,9.35,42.8,85,10.04,27
gerede,45.7,40.8008,32.1969,94,3.11,93
champerico,84.65,14.3,-91.9167,68,5.7,39
santa barbara,69.57,34.7333,-120.0343,47,6.8,1
shiyan,77.14,32.6475,110.7781,72,0.56,84
thunder bay,67.95,48.4001,-89.3168,42,0.0,40
channel-port aux basques,43.36,47.5702,-59.1367,97,20.8,99
bosaso,89.6,11.2842,49.1816,52,7.76,95
tahe,51.01,52.3333,124.7333,97,8.25,100
bisira,60.66,8.5196,-81.7115,92,6.17,63
bukachacha,49.82,52.9833,116.9167,96,10.38,100
keti bandar,83.03,24.1447,67.4497,84,18.19,60
udachnyy,56.73,66.4167,112.4,50,8.88,100
vigia del fuerte,75.63,6.5789,-76.8863,98,1.52,100
atasu,69.03,48.6814,71.6433,49,6.96,89
karaton,79.03,-6.3424,106.1045,92,1.61,98
inirida,75.33,3.8653,-67.9239,96,1.03,96
phatthalung,76.95,7.5,100.0833,82,1.72,100
gidole,55.99,5.65,37.3667,78,2.13,63
xuddur,70.72,4.1213,43.8894,86,14.41,89
murmashi,45.01,68.8154,32.8115,76,6.71,75
volnovakha,63.0,47.601,37.4967,100,21.99,100
tiznit,63.43,29.5833,-9.5,75,2.08,4
sorong,80.15,-0.8833,131.25,85,9.48,93
amalapuram,83.12,16.5833,82.0167,86,3.76,74
muli,83.55,2.9167,73.5667,69,17.67,87
kuloy,38.39,61.0305,42.4925,70,3.51,16
evinayong,68.56,1.4368,10.5512,99,2.48,100
dindori,83.46,22.95,81.0833,39,2.62,88
kohlu,80.19,29.8962,69.252,23,2.13,8
ola,37.65,59.5833,151.2833,95,1.43,100
nara,75.13,34.6851,135.8049,57,3.44,0
alikalia,70.21,9.1667,-11.4,99,3.09,99
lahaina,87.46,20.8783,-156.6825,59,9.22,20
eureka,64.72,40.8021,-124.1637,64,1.99,41
neryungri,55.24,56.6709,124.6491,56,0.38,90
raga,78.28,8.4596,25.678,45,3.22,26
huntsville,74.8,34.7304,-86.5861,50,3.44,1
hede,76.21,33.7681,120.2517,58,11.36,78
oussouye,77.09,12.485,-16.5469,78,6.73,90
am timan,93.16,11.0297,20.2827,26,7.0,56
zaranj,82.36,30.9667,61.8833,12,12.01,0
shimanovsk,54.66,52.0,127.7,76,9.48,100
gigmoto,85.06,13.7796,124.39,77,6.17,91
athens,64.78,37.9795,23.7162,68,4.0,40
soldato-aleksandrovskoye,64.15,44.2653,43.7561,84,1.45,3
batagay-alyta,47.62,67.8006,130.4114,69,2.59,97
painesville,63.52,41.7245,-81.2457,55,1.83,99
clonakilty,54.61,51.6231,-8.8706,91,2.8,100
sinegorye,40.59,62.0788,150.477,86,4.68,100
tarko-sale,37.99,64.9225,77.785,72,5.14,100
coahuayana,89.08,18.7333,-103.6833,69,5.35,99
darnah,68.41,32.767,22.6367,83,14.74,27
mogzon,41.5,51.7435,111.9606,56,13.71,96
kenai,61.88,60.5544,-151.2583,45,23.02,90
sturgeon bay,53.89,44.8342,-87.377,76,29.93,40
lebork,53.17,54.5392,17.7501,60,2.51,100
birao,86.13,10.2849,22.7882,29,3.38,31
kungurtug,34.95,50.5994,97.5228,84,1.77,94
tema,81.01,5.667,-0.0166,83,10.63,0
maumelle,71.51,34.8668,-92.4043,67,1.01,100
ilanskiy,47.17,56.2358,96.065,60,5.84,0
calituban,82.4,10.24,124.2919,83,4.61,90
berezovyy,66.81,51.6667,135.7,47,2.68,7
elizabethton,66.6,36.3487,-82.2107,75,0.0,1
tateyama,69.15,34.9833,139.8667,78,8.16,64
tilichiki,48.4,60.4667,166.1,61,0.4,96
cedar lake,60.67,41.3648,-87.4411,68,4.27,100
tigil,55.17,57.8,158.6667,40,6.04,100
najran,77.65,17.4924,44.1277,14,3.76,8
tashla,62.82,51.7716,52.7427,89,6.51,100
yalutorovsk,41.27,56.6536,66.3006,74,10.92,6
kuybyshevo,58.3,47.8123,38.9073,82,12.35,99
lazaro cardenas,86.11,17.9583,-102.2,69,7.81,85
mehran,78.28,33.1222,46.1646,13,9.66,0
anklam,53.06,53.8564,13.6897,92,6.15,99
aksarka,42.51,66.5606,67.7975,76,16.91,63
epinal,50.79,48.1833,6.45,79,2.48,0
serebryansk,53.15,49.6925,83.2892,68,1.3,7
hammerfest,43.25,70.6634,23.6821,100,6.91,75
galveston,80.35,29.3669,-94.9669,83,4.0,90
tramore,55.4,52.1624,-7.1524,89,1.01,100
yongzhou,78.08,26.4559,111.5988,85,1.77,9
millinocket,51.76,45.6573,-68.7098,99,6.91,90
tambura,72.48,5.6,27.4667,65,3.58,47
xiongyue,63.25,40.1774,122.1228,89,4.16,99
forest grove,85.98,45.5198,-123.1107,33,4.0,1
alenquer,79.14,-1.9417,-54.7383,77,3.98,79
yashkino,54.55,55.8736,85.4265,61,4.25,9
ekhabi,45.36,53.5102,142.9671,64,10.0,100
black forest,47.77,39.0131,-104.7008,100,3.44,75
steamboat springs,63.73,40.485,-106.8317,39,3.44,90
